City_ID,City_ID,City,Lat,Lng,Max Temp,Humidity,Cloudiness,Wind Speed,Country,Date,Hotel Name,Hotel Rating
0,0,Ixtapa,20.7,-105.2,75.22,89,100,5.01,MX,2022-01-19 23:50:07,Hotel Plaza Providencia,4.4
1,1,Karaton,-6.3424,106.1045,79.95,93,97,5.17,ID,2022-01-19 23:50:07,Parkir Mobil Wisata CAS Water Park,4.3
2,2,Ushuaia,-54.8,-68.3,53.26,58,0,17.27,AR,2022-01-19 23:45:13,Albatross Hotel,4.3
3,3,Busselton,-33.65,115.3333,78.04,52,2,9.98,AU,2022-01-19 23:50:08,Observatory Guest House,4.5
4,4,Pacific Grove,36.6177,-121.9166,65.43,75,0,1.01,US,2022-01-19 23:50:08,Lovers Point Inn,3.7
5,5,Venado Tuerto,-33.7456,-61.9688,76.78,83,98,2.55,AR,2022-01-19 23:50:08,Hotel - Miro Park,4
6,6,Bredasdorp,-34.5322,20.0403,66.27,88,27,6.91,ZA,2022-01-19 23:50:08,Bredasdorp Country Manor,4.8
7,7,Mataura,-46.1927,168.8643,56.48,80,99,8.84,NZ,2022-01-19 23:50:09,Ellie's Villa,4.7
8,8,Jamestown,-15.9387,-5.7168,70.02,77,0,13.4,SH,2022-01-19 23:50:09,Consulate,4.5
9,9,Vaini,-21.2,-175.2,82.04,82,4,19.19,TO,2022-01-19 23:50:09,Keleti Beach Resort,4
10,10,Egaña,10.7472,122.0098,79.25,73,60,2.8,PH,2022-01-19 23:50:09,Jeavne House,
11,11,Macheng,31.1783,115.0319,41.86,83,1,4.29,CN,2022-01-19 23:50:10,Shell Macheng City Macheng Bus Station Hotel,
12,12,Keti Bandar,24.1447,67.4497,71.92,85,2,20.58,PK,2022-01-19 23:50:10,Haji laloo memon house,4.5
13,13,Victoria,-4.6167,55.45,78.06,89,40,10.36,SC,2022-01-19 23:50:10,Coral Strand Smart Choice Hotel,4
14,14,Truro,45.3669,-63.2654,24.51,63,91,8.05,CA,2022-01-19 23:49:50,Best Western Truro - Glengarry,4.1
15,15,Punta Arenas,-53.15,-70.9167,55.51,54,0,9.22,CL,2022-01-19 23:48:40,Hotel Hain,4
16,16,Nikolskoye,59.7035,30.7861,38.88,92,100,11.86,RU,2022-01-19 23:50:11,Tourist House - Sablino,4.2
17,17,Bambous Virieux,-20.3428,57.7575,80.22,94,40,1.14,MU,2022-01-19 23:50:11,Casa Tia Villa,5
18,18,Kapaa,22.0752,-159.319,79.48,74,75,3.0,US,2022-01-19 23:45:16,Sheraton Kauai Coconut Beach Resort,4.1
19,19,Fairbanks,64.8378,-147.7164,7.61,84,75,0.0,US,2022-01-19 23:47:08,Westmark Fairbanks Hotel & Conference Center,4
21,21,Kirakira,-10.4544,161.9205,85.28,71,45,4.63,SB,2022-01-19 23:46:07,SanBiz Lodge,
22,22,Yaan,7.3833,8.5667,77.61,21,94,10.42,NG,2022-01-19 23:50:12,,
23,23,Avarua,-21.2078,-159.775,80.65,83,75,12.66,CK,2022-01-19 23:50:12,Paradise Inn,4
24,24,Rikitea,-23.1203,-134.9692,76.57,77,100,7.14,PF,2022-01-19 23:50:12,People ThankYou,4.2
25,25,Lithgow,-33.4833,150.15,68.09,81,98,14.92,AU,2022-01-19 23:50:13,Zig Zag Motel Lithgow,4.4
26,26,Albany,-35.0169,117.8917,68.43,73,0,6.91,AU,2022-01-19 23:50:13,Dog Rock Motel,4.2
27,27,Hambantota,6.1241,81.1185,73.42,82,95,10.16,LK,2022-01-19 23:50:13,Bungalow 63,4.6
28,28,Tessalit,20.1986,1.0114,58.19,27,5,12.84,ML,2022-01-19 23:50:14,,
29,29,Hobart,-42.8794,147.3294,70.02,61,75,4.61,AU,2022-01-19 23:50:08,Mantra on Collins Hobart,4.2
30,30,Arraial do Cabo,-22.9661,-42.0278,76.96,94,20,14.97,BR,2022-01-19 23:50:14,Pousada Porto Praia,4.3
32,32,Espanola,46.2584,-81.7665,9.09,80,94,9.8,CA,2022-01-19 23:50:15,Alta Vista Motel,3.5
34,34,Christchurch,-43.5333,172.6333,63.32,56,40,5.01,NZ,2022-01-19 23:49:54,The George,4.5
35,35,Saint-Philippe,-21.3585,55.7679,76.59,85,69,3.04,RE,2022-01-19 23:50:16,"Chambres d'hôte ""La Trinité""",3.5
37,37,La Palma,8.4028,-78.1453,77.13,84,44,9.55,PA,2022-01-19 23:50:16,,
40,40,Cape Town,-33.9258,18.4232,64.11,78,0,4.61,ZA,2022-01-19 23:50:17,Southern Sun Waterfront Cape Town,4.4
41,41,Nan,18.8333,100.6667,62.62,100,40,0.0,TH,2022-01-19 23:51:18,สะเนียน2,
42,42,Mar del Plata,-38.0023,-57.5575,71.1,86,40,1.99,AR,2022-01-19 23:51:18,Gran Hotel Mar del Plata,3.8
44,44,Dingle,52.1408,-10.2689,45.09,81,29,7.31,IE,2022-01-19 23:51:18,Dingle Benners Hotel,4.6
45,45,Katsuura,35.1333,140.3,43.11,65,60,4.38,JP,2022-01-19 23:51:19,Katsuura Hotel Mikazuki,3.7
46,46,Ahipara,-35.1667,173.1667,71.26,63,100,7.92,NZ,2022-01-19 23:51:19,Ahipara Holiday Park,4.7
47,47,Hilo,19.7297,-155.09,82.13,68,0,10.36,US,2022-01-19 23:47:22,Hilo Hawaiian Hotel,4.1
49,49,Mossamedes,-15.1961,12.1522,68.76,86,60,3.42,AO,2022-01-19 23:51:19,Hotel Chik Chik Namibe,3.6
51,51,San Ignacio,17.1561,-89.0714,84.34,70,20,0.0,BZ,2022-01-19 23:51:20,Rainforest Haven Inn,4.6
52,52,Hong Gai,20.956,107.0946,62.51,70,59,5.93,VN,2022-01-19 23:51:20,Hạ Long DC Hotel,4.2
54,54,Esperance,-33.8667,121.9,64.24,61,0,11.81,AU,2022-01-19 23:51:21,Hospitality Esperance,3.9
57,57,Hermanus,-34.4187,19.2345,66.79,74,51,8.84,ZA,2022-01-19 23:51:21,Misty Waves Boutique Hotel,4.6
58,58,Morehead,-8.7107,141.6367,76.95,92,100,3.4,PG,2022-01-19 23:51:21,,
59,59,Bengkulu,-3.8004,102.2655,74.77,88,100,5.35,ID,2022-01-19 23:51:22,Grage Hotel Bengkulu,4.3
60,60,Barinas,8.6226,-70.2075,89.64,40,36,5.75,VE,2022-01-19 23:51:22,Hotel Mastranto Suite,4
61,61,Yumen,40.2833,97.2,22.44,38,67,3.83,CN,2022-01-19 23:51:22,,
62,62,Tual,-5.6667,132.75,83.07,76,100,15.66,ID,2022-01-19 23:51:22,Grand Vilia Hotel,4.2
63,63,Tirumullaivāsal,11.2333,79.8333,72.66,71,13,6.29,IN,2022-01-19 23:51:23,Almupaark complex,5
64,64,Port-Gentil,-0.7193,8.7815,78.71,81,100,3.18,GA,2022-01-19 23:51:23,Fengshui Residence,4.4
65,65,Airai,-8.9266,125.4092,61.21,97,100,1.1,TL,2022-01-19 23:51:23,,
66,66,Prince Rupert,54.3161,-130.3201,46.09,85,100,21.85,CA,2022-01-19 23:51:23,Crest Hotel,4.4
67,67,Puerto Ayora,-0.7393,-90.3518,74.34,84,89,8.1,EC,2022-01-19 23:51:24,Finch Bay Galapagos Hotel,4.7
68,68,Omboué,-1.5746,9.2618,76.41,90,100,3.15,GA,2022-01-19 23:51:24,Hotel Olako,3.9
69,69,Bluff,-46.6,168.3333,56.8,55,98,22.77,NZ,2022-01-19 23:51:24,Bluff Homestead - Guesthouse & Campervan Park,5
70,70,Namatanai,-3.6667,152.4333,79.66,85,100,14.88,PG,2022-01-19 23:51:24,Seagulls Inn Namatani,
71,71,Hay River,60.8156,-115.7999,3.18,66,75,16.11,CA,2022-01-19 23:51:24,Ptarmigan Inn,3.7
74,74,Port Hardy,50.6996,-127.4199,49.75,93,100,19.57,CA,2022-01-19 23:51:25,Airport Inn-Port Hardy,3.6
75,75,Kampot,10.6167,104.1833,73.45,75,43,3.65,KH,2022-01-19 23:51:26,Two Moons Hotel,4
76,76,Hirara,24.8,125.2833,64.67,63,75,13.8,JP,2022-01-19 23:51:26,Hotel Atoll Emerald Miyakojima,3.8
77,77,Biak,-0.9131,122.8766,76.96,86,100,2.8,ID,2022-01-19 23:51:26,Penginapan Kim,
79,79,Pagouria,41.0291,25.3184,36.48,66,8,1.88,GR,2022-01-19 23:51:27,,
81,81,Petropavlovsk-Kamchatskiy,53.0452,158.6483,27.19,54,75,15.66,RU,2022-01-19 23:51:27,The Hotel Petropavlovsky,3.8
82,82,Hamilton,32.2915,-64.778,63.0,71,100,5.75,BM,2022-01-19 23:51:27,Coco Reef Resort Bermuda,4.2
86,86,Bairiki Village,1.3292,172.9752,86.0,74,20,9.22,KI,2022-01-19 23:51:28,Tarawa Boutique Hotel,3.3
87,87,Daoukro,7.0591,-3.9631,70.02,26,5,3.29,CI,2022-01-19 23:51:29,Komenan brou roseline,
88,88,Concepción del Oro,24.6333,-101.4167,61.48,21,46,5.32,MX,2022-01-19 23:51:29,Hotel Hacienda San Javier,4.1
89,89,Băgaciu,46.2667,24.3667,20.12,95,54,2.37,RO,2022-01-19 23:52:29,Tri Feresti,4.5
90,90,Hermiston,45.8404,-119.2895,50.11,81,100,5.75,US,2022-01-19 23:52:29,Oxford Suites Hermiston,4.4
91,91,Bilma,18.6853,12.9164,53.73,32,1,5.28,NE,2022-01-19 23:52:30,Expeditions Ténére voyages,4.8
92,92,San Andrés,12.5847,-81.7006,82.42,69,20,13.8,CO,2022-01-19 23:52:30,Hotel Arena Blanca,4.5
93,93,Santa Cruz de Barahona,18.2085,-71.1008,80.42,78,20,11.5,DO,2022-01-19 23:52:30,Hotel Caribe,4
94,94,Neiafu,-18.65,-173.9833,83.16,81,35,19.86,TO,2022-01-19 23:52:30,Mystic Sands Beachfront Accommodation,4.8
95,95,Padang,-0.9492,100.3543,71.65,82,100,3.29,ID,2022-01-19 23:52:31,Mercure Padang,4.5
96,96,Shenjiamen,29.9576,122.298,47.34,69,98,12.59,CN,2022-01-19 23:52:31,Jinjiang Inn Zhoushan Putuo Shenjiamen,3.8
97,97,Tiksi,71.6872,128.8694,0.61,77,100,23.42,RU,2022-01-19 23:52:31,Arktika,3.7
98,98,Copiapó,-27.3667,-70.3333,64.09,53,0,5.23,CL,2022-01-19 23:52:31,San Francisco de La Selva,4
100,100,High Rock,26.6208,-78.2833,68.02,55,42,11.03,BS,2022-01-19 23:52:32,Hideaway Bahamas Beach Club,4
101,101,Tiznit Province,29.5833,-9.5,53.85,38,54,5.79,MA,2022-01-19 23:52:32,,
102,102,Septèmes-les-Vallons,43.4,5.3667,45.21,83,0,12.66,FR,2022-01-19 23:52:32,Hôtel Restaurant Campanile Marseille Saint Antoine,3.4
103,103,Marsh Harbour,26.5412,-77.0636,72.59,55,49,11.23,BS,2022-01-19 23:52:33,Abaco Beach Resort,4.2
105,105,Roma,-26.5833,148.7833,73.15,79,100,15.48,AU,2022-01-19 23:52:33,Best Western Bungil Creek Motel,4.4
109,109,Carnarvon,-24.8667,113.6333,77.07,88,5,9.22,AU,2022-01-19 23:52:34,Hospitality Carnarvon,3.9
110,110,Grivenskaya,45.6473,38.176,28.18,84,100,7.25,RU,2022-01-19 23:52:34,,
111,111,Bosobolo,4.1833,19.9,77.52,47,79,1.99,CD,2022-01-19 23:52:35,,
113,113,Berlevåg,70.8578,29.0864,27.93,76,71,21.97,NO,2022-01-19 23:52:35,Kvitbrakka,4.7
114,114,Esim,4.8699,-2.2405,78.66,81,37,3.78,GH,2022-01-19 23:52:35,Axim Beach Resort And Spa,4
115,115,Butaritari,3.0707,172.7902,81.93,78,100,17.58,KI,2022-01-19 23:52:36,Isles Sunset Lodge,5
116,116,Touros,-5.1989,-35.4608,79.7,73,58,13.44,BR,2022-01-19 23:52:36,INN NEW HORIZON,4.3
117,117,Ambikāpur,23.1167,83.2,48.42,25,9,2.89,IN,2022-01-19 23:52:36,Hotel Birendra Prabha,3.9
118,118,Kajaani,64.2273,27.7285,32.05,100,100,6.91,FI,2022-01-19 23:52:36,Original Sokos Hotel Valjus,3.9
119,119,Tuatapere,-46.1333,167.6833,56.82,54,100,14.07,NZ,2022-01-19 23:52:37,Ron and Tony's Bed & Breakfast,5
120,120,São Filipe,14.8961,-24.4956,72.54,80,33,7.4,CV,2022-01-19 23:52:37,Hotel Xaguate,3.5
121,121,Saint Simons,31.1352,-81.3901,59.02,68,0,3.44,US,2022-01-19 23:52:37,"Holiday Inn Express Saint Simons Island, an IHG Hotel",3.9
122,122,Kez,57.8979,53.7152,21.61,95,99,7.25,RU,2022-01-19 23:52:37,Gostinitsa Uyut Kez,4.5
123,123,Jurilovca,44.7667,28.8667,27.03,60,27,10.33,RO,2022-01-19 23:52:38,Suvenir din Dobrogea,4.8
124,124,Ust'-Kut,56.7938,105.7672,2.89,99,100,0.58,RU,2022-01-19 23:52:38,Otel Flagman,4.4
125,125,Khalimbekaul,42.846,47.1387,29.43,81,99,4.34,RU,2022-01-19 23:52:38,Mika Tsentr,4.2
128,128,Guerrero Negro,27.9769,-114.0611,63.07,73,81,14.43,MX,2022-01-19 23:52:39,"Casa Laguna, Bed & Breakfast",4.2
129,129,Diffa,13.3154,12.6113,59.85,37,1,12.48,NE,2022-01-19 23:52:39,ProDAF/Diffa,3.4
130,130,Vao,-22.6667,167.4833,78.06,79,21,16.46,NC,2022-01-19 23:52:39,Hotel Kou-Bugny,3.9
131,131,Sibolga,1.7427,98.7792,71.8,83,66,4.07,ID,2022-01-19 23:52:39,Hotel Syariah CN Darussalam,3.8
132,132,Codrington,-28.9483,153.2428,73.35,94,100,19.57,AU,2022-01-19 23:53:40,,
133,133,Northam,-31.6667,116.6667,84.25,18,0,10.71,AU,2022-01-19 23:53:40,Northam Motel,4
135,135,Kaitangata,-46.2817,169.8464,56.93,56,84,14.83,NZ,2022-01-19 23:53:40,Kaitangata Motor Camp,4.8
136,136,Belmonte,-15.8631,-38.8828,81.1,81,15,5.86,BR,2022-01-19 23:53:40,Pousada Monte Carmelo O Pão,3.8
137,137,Lagoa,39.05,-27.9833,61.14,88,47,28.43,PT,2022-01-19 23:53:41,Casa Das Faias,4.9
138,138,Vestmannaeyjar,63.4427,-20.2734,36.84,69,72,2.91,IS,2022-01-19 23:53:41,Glamping & Camping,4.7
139,139,Atuona,-9.8,-139.0333,79.03,74,7,19.17,PF,2022-01-19 23:53:41,Villa Enata,4.9
140,140,Goderich,43.7407,-81.7077,25.5,74,100,18.41,CA,2022-01-19 23:53:42,Harmony Inn,3.7
141,141,Evensk,61.95,159.2333,0.9,65,1,7.83,RU,2022-01-19 23:53:42,,
142,142,Kashgar,39.4547,75.9797,25.81,42,9,8.95,CN,2022-01-19 23:53:42,帕米尔青年旅舍,3.6
144,144,Doka,13.5167,35.7667,64.44,17,6,12.68,SD,2022-01-19 23:53:42,,
145,145,Mezen',65.8522,44.24,24.42,95,100,13.33,RU,2022-01-19 23:53:43,Gostevoy Dom Everest,
146,146,Ribeira Grande,38.5167,-28.7,63.0,77,40,13.8,PT,2022-01-19 23:53:43,Quinta da Meia Eira,4.7
147,147,Tahoua,14.8888,5.2692,57.76,23,0,13.06,NE,2022-01-19 23:53:43,Bungalows Guesthouse,3.1
148,148,Kalmunai,7.4167,81.8167,73.0,81,79,8.28,LK,2022-01-19 23:53:44,VS Villa,4
149,149,Moerai,-22.4333,-151.3333,78.98,65,100,10.38,PF,2022-01-19 23:53:44,Le Manotel,3.6
150,150,Kathmandu,27.7167,85.3167,46.62,93,75,3.44,NP,2022-01-19 23:53:44,Hotel Shanker Kathmandu,4.2
151,151,Half Moon Bay,37.4636,-122.4286,66.79,74,0,5.75,US,2022-01-19 23:51:12,"The Ritz-Carlton, Half Moon Bay",4.6
152,152,Vanavara,60.34,102.2797,6.55,94,96,7.94,RU,2022-01-19 23:53:44,,
153,153,San Patricio,19.2167,-104.7,78.33,68,73,6.82,MX,2022-01-19 23:53:44,Hotel Cabo Blanco,4.3
154,154,London,51.5085,-0.1257,40.75,88,16,6.91,GB,2022-01-19 23:49:35,"The Clermont, Charing Cross",4.5
155,155,Port Blair,11.6667,92.75,75.24,94,40,2.3,IN,2022-01-19 23:53:45,"Welcomhotel By ITC Hotels, Bay Island, Port Blair",4.2
156,156,Santa Maria,16.6,-22.9,70.39,73,75,12.66,CV,2022-01-19 23:53:45,Porta do Vento,3.8
157,157,Port Alfred,-33.5906,26.891,69.12,85,17,13.42,ZA,2022-01-19 23:53:45,The Halyards Hotel,3.8
158,158,Gander,48.9682,-54.5906,19.53,62,40,25.99,CA,2022-01-19 23:53:46,Quality Hotel & Suites,4
159,159,Mount Gambier,-37.8333,140.7667,75.11,43,0,17.27,AU,2022-01-19 23:53:46,The Commodore,4.2
160,160,Inongo,-1.95,18.2667,74.41,80,99,3.13,CD,2022-01-19 23:53:46,Hotel Du Lac,4.2
161,161,Margate,-30.8636,30.3705,70.83,85,65,1.77,ZA,2022-01-19 23:53:46,Swallows Nest B&B,4.7
162,162,Oktyabr'skoye,43.0645,44.7417,23.14,100,100,13.42,RU,2022-01-19 23:53:47,Prolesok Mini-hotel,4
163,163,Port Elizabeth,-33.918,25.5701,66.49,88,0,9.22,ZA,2022-01-19 23:53:47,39 On Nile Guest House,4.5
164,164,Konin,52.2234,18.2512,34.05,83,100,20.15,PL,2022-01-19 23:53:47,Zajazd Grodzki,4.2
166,166,Souillac,-20.5167,57.5167,80.37,94,40,1.14,MU,2022-01-19 23:53:48,Shanti Maurice Resort & Spa,4.5
167,167,Faanui,-16.4833,-151.75,80.62,78,100,23.26,PF,2022-01-19 23:53:48,Bora-Bora Pearl Beach Resort & Spa,4.7
168,168,Pisco,-13.7,-76.2167,75.25,73,0,21.85,PE,2022-01-19 23:53:48,Hotel San Isidro Oficial,4
170,170,Husavik,66.0449,-17.3389,28.31,72,98,14.79,IS,2022-01-19 23:53:48,Bjarnabúð,5
171,171,Sitka,57.0531,-135.33,35.94,94,100,9.04,US,2022-01-19 23:53:48,Westmark Sitka,3.9
172,172,Castro,-42.4721,-73.7732,69.28,49,0,6.91,CL,2022-01-19 23:53:49,Hotel Esmeralda,4.3
173,173,Venustiano Carranza,19.43,-99.0992,69.78,26,75,5.99,MX,2022-01-19 23:53:49,We Hotel Aeropuerto,4.2
176,176,Lebu,-37.6167,-73.65,57.13,74,0,7.25,CL,2022-01-19 23:53:50,Hostal Las Lilas,3.8
177,177,Nsanje,-16.92,35.262,69.57,97,25,2.73,MW,2022-01-19 23:53:50,Nsanje Discovery Lodge,3.3
178,178,Riachão das Neves,-11.7461,-44.91,71.96,82,0,1.25,BR,2022-01-19 23:53:50,Casa Costa,
179,179,Khovu-Aksy,51.1333,93.6,2.79,96,89,3.0,RU,2022-01-19 23:53:50,,
180,180,Bougouni,11.417,-7.479,70.39,13,2,5.84,ML,2022-01-19 23:54:51,Non Stop,4
181,181,New Norfolk,-42.7826,147.0587,69.66,39,96,2.37,AU,2022-01-19 23:54:51,The Shingles Riverside Cottages,4.7
182,182,Vila Franca do Campo,37.7167,-25.4333,61.21,88,87,21.0,PT,2022-01-19 23:54:51,Pestana Bahia Praia,4.4
183,183,Linxia Chengguanzhen,35.6003,103.2064,30.92,42,76,0.87,CN,2022-01-19 23:54:51,GreenTree Inn Linxia Autonomous Prefecture Linxia Oxford River Avenue Express Hotel,
184,184,Manggar,-2.8833,108.2667,75.61,87,100,11.72,ID,2022-01-19 23:54:52,Guest Hotel,4.1
185,185,Meulaboh,4.1363,96.1285,73.72,89,99,4.14,ID,2022-01-19 23:54:52,Kost Pria,3.6
186,186,Narsaq,60.9167,-46.05,33.12,97,100,13.31,GL,2022-01-19 23:54:52,Sleep In Narsaq,
187,187,Agadir,30.4202,-9.5982,55.85,50,53,7.31,MA,2022-01-19 23:49:54,Iberostar Founty Beach,4.6
188,188,Bethel,41.3712,-73.414,42.49,69,47,6.31,US,2022-01-19 23:54:52,Courtyard by Marriott Danbury,4.3
189,189,Capreol,46.706,-80.9225,0.55,73,75,5.01,CA,2022-01-19 23:54:53,,
190,190,Eureka,40.8021,-124.1637,56.12,84,72,5.99,US,2022-01-19 23:54:53,Eureka Inn Trademark By Wyndham,4
191,191,Bonavista,48.6499,-53.1147,24.12,63,89,25.55,CA,2022-01-19 23:54:53,Abbott's Bed & Breakfast,4.8
192,192,Mapiripán,2.8892,-72.1256,79.29,57,68,1.14,CO,2022-01-19 23:54:53,Monserrate,3.8
193,193,Tamandaré,-8.7597,-35.1047,78.75,76,2,5.77,BR,2022-01-19 23:54:54,Pousada 100 Passos,4.3
195,195,Twentynine Palms,34.1356,-116.0542,70.97,25,0,3.0,US,2022-01-19 23:54:54,"Holiday Inn Express & Suites Twentynine Palms- Joshua Tree, an IHG Hotel",4.3
198,198,Gunjur,13.2019,-16.7339,73.47,78,0,2.3,GM,2022-01-19 23:54:55,Dalaba Eco-Lodge Gambia,4.5
199,199,São João da Barra,-21.6403,-41.0511,76.32,91,1,10.33,BR,2022-01-19 23:54:55,Pousada Porto De Canoas,4.3
200,200,Korla,41.7597,86.1469,28.08,44,94,5.93,CN,2022-01-19 23:54:55,Gulisitan Hotel,
201,201,Plainview,40.7765,-73.4673,46.51,76,73,1.99,US,2022-01-19 23:54:56,Four Points by Sheraton Melville Long Island,4.1
203,203,Coquimbo,-29.9533,-71.3436,65.93,63,0,10.36,CL,2022-01-19 23:53:41,Hostel Del Puerto,4.3
204,204,Rio Grande,-32.035,-52.0986,81.95,85,69,10.98,BR,2022-01-19 23:54:56,Hotel Atlântico Rio Grande,4.3
205,205,Kidal,18.4411,1.4078,58.89,25,0,10.92,ML,2022-01-19 23:54:56,,
206,206,Susanville,40.4163,-120.653,48.04,56,0,4.61,US,2022-01-19 23:54:57,Comfort Inn & Suites,4.2
208,208,Chilchotla,19.2548,-97.1844,55.36,75,71,3.91,MX,2022-01-19 23:54:57,Hotel Real,2.9
209,209,Itarema,-2.9248,-39.9167,78.85,84,19,11.63,BR,2022-01-19 23:54:57,"Sea Lounge! Bar, Club & Restaurant",
210,210,Karratha,-20.7377,116.8463,86.97,56,4,9.01,AU,2022-01-19 23:54:58,ibis Styles Karratha,3.4
211,211,Prieska,-29.6641,22.7474,82.11,26,0,5.32,ZA,2022-01-19 23:54:58,Avenue GuestHouse,4.4
212,212,Kaohsiung City,22.6163,120.3133,65.03,89,75,2.3,TW,2022-01-19 23:54:58,御宿商旅-中山館,3.9
213,213,Fethiye,36.6217,29.1164,35.47,50,0,7.02,TR,2022-01-19 23:54:59,Club & Hotel Letoonia,4.6
214,214,Constitucion,23.9912,-104.6749,67.14,24,99,17.0,MX,2022-01-19 23:54:59,18 De Marzo,3.9
216,216,Upernavik,72.7868,-56.1549,21.99,71,100,7.47,GL,2022-01-19 23:54:59,Gina's Guesthouse - Upernavik,4.5
217,217,Panama City,30.1595,-85.6598,61.02,74,0,1.99,US,2022-01-19 23:55:00,Courtyard by Marriott Panama City,4.2
218,218,Kawalu,-7.3817,108.2082,73.72,90,99,1.19,ID,2022-01-19 23:55:00,KOSAN UNGU UNSIK,5
219,219,Maţāy,28.419,30.7792,45.88,61,14,6.35,EG,2022-01-19 23:55:00,Nag Aespen,3.4
220,220,Clyde River,70.4692,-68.5914,7.03,92,100,44.87,CA,2022-01-19 23:55:00,Qamaq Hotel,3.8
221,221,Sinnamary,5.3833,-52.95,76.12,89,100,12.33,GF,2022-01-19 23:55:01,ALETHEIA Appartement Sinnamary,
222,222,Brae,60.3964,-1.353,35.51,58,100,31.94,GB,2022-01-19 23:55:01,Busta House Hotel,4.6
223,223,Teknāf,20.8624,92.3058,59.52,90,8,4.94,BD,2022-01-19 23:55:01,Forestry Guesthouse,4.2
224,224,Sibsāgar,26.9833,94.6333,50.18,79,4,2.8,IN,2022-01-19 23:55:01,Hotel Brahmaputra,4
225,225,Horki,54.2861,30.9842,29.44,96,100,12.57,BY,2022-01-19 23:55:02,Sauna V Gorkakh. Zhil'ye.,3.8
226,226,Port Shepstone,-30.7414,30.455,70.68,85,62,2.75,ZA,2022-01-19 23:55:02,My Den Beachfront Bed and Breakfast | Self-Catering,4
227,227,Nanortalik,60.1432,-45.2371,33.15,93,100,17.92,GL,2022-01-19 23:56:02,Hotel Kap Farvel,3.9
228,228,Brumunddal,60.881,10.9395,24.73,63,34,11.16,NO,2022-01-19 23:56:03,Wood Hotel,4.3
229,229,Hithadhoo,-0.6,73.0833,81.3,73,100,7.07,MV,2022-01-19 23:56:03,Scoop Guest House,1.5
230,230,Ayr,-19.5833,147.4,88.03,37,95,1.01,AU,2022-01-19 23:56:03,Parkside Motel Ayr,4.5
231,231,Paamiut,61.994,-49.6678,35.31,93,100,39.48,GL,2022-01-19 23:56:03,Pistut,
232,232,Anloga,5.7947,0.8973,79.02,74,55,3.47,GH,2022-01-19 23:56:04,Pin Drop Hotel,3.5
233,233,Otane,-39.8833,176.6333,72.01,59,100,7.9,NZ,2022-01-19 23:56:04,Ludlow Farmstay,4.8
234,234,Lufilufi,-13.8745,-171.5986,89.38,76,100,19.73,WS,2022-01-19 23:56:04,Leuaina Beach Resort and Spa,3.7
235,235,Pombas,17.1503,-25.0201,69.58,68,82,6.11,CV,2022-01-19 23:56:04,Paul Paradis,
236,236,Ilulissat,69.2167,-51.1,38.26,70,100,16.37,GL,2022-01-19 23:56:05,Hotel Arctic,4.4
237,237,Dok Kham Tai,19.1624,99.9934,58.8,97,1,2.19,TH,2022-01-19 23:56:05,โรงแรมวีซี ดอกคำใต้ พะเยา,4
238,238,Caravelas,-17.7125,-39.2481,75.94,88,0,4.0,BR,2022-01-19 23:56:05,Pousada dos Navegantes,3.5
239,239,Vagay,57.9375,69.0217,18.43,96,100,5.73,RU,2022-01-19 23:56:05,,
240,240,Novovyazniki,56.1975,42.1711,14.68,84,98,12.17,RU,2022-01-19 23:56:06,Gruzovaya Avtomoyka,4.6
241,241,San Cristobal,-0.9045,-89.6174,74.98,85,84,8.95,EC,2022-01-19 23:56:06,Hotel los Algarrobos,4.1
242,242,Sørland,67.667,12.6934,30.51,63,100,31.97,NO,2022-01-19 23:56:06,Sjybrygga fiskecamp,4.5
243,243,Castelnaudary,43.3183,1.9545,47.62,92,100,1.99,FR,2022-01-19 23:56:07,Hôtel-Restaurant Le Clos Fleuri,4.4
247,247,Skála,36.85,22.6667,50.22,72,69,2.04,GR,2022-01-19 23:56:08,Ξενοδοχείο Όαση/ Oasis Hotel,4.3
249,249,Port Augusta,-32.5,137.7667,80.74,52,88,19.01,AU,2022-01-19 23:56:08,Majestic Oasis Apartments,4.3
250,250,Martapura,-3.4167,114.85,76.37,92,100,0.96,ID,2022-01-19 23:56:08,Montana Hotel Syariah,4.3
251,251,Dalbandin,28.8947,64.4101,57.0,70,43,5.17,PK,2022-01-19 23:56:09,Gidaan Guest House,4.4
252,252,Lompoc,34.6391,-120.4579,68.22,76,0,9.22,US,2022-01-19 23:55:35,"Holiday Inn Express Lompoc, an IHG Hotel",4.2
253,253,Turukhansk,65.8167,87.9833,10.65,95,100,13.73,RU,2022-01-19 23:56:09,"ООО ""Туруханская пушнина""",3.6
254,254,Kautokeino,69.0125,23.0412,3.78,93,59,8.5,NO,2022-01-19 23:56:09,Thon Hotel Kautokeino,4.4
255,255,Broome,-17.9667,122.2333,85.95,70,75,9.22,AU,2022-01-19 23:56:09,Mangrove Hotel,4.2
256,256,Maceió,-9.6658,-35.7353,80.04,78,20,5.75,BR,2022-01-19 23:56:10,Poutur Pousada,3.9
259,259,Yining,29.0361,114.5636,45.48,90,66,2.17,CN,2022-01-19 23:56:10,Xiushui Hotel,
260,260,Yeppoon,-23.1333,150.7333,83.98,58,63,16.6,AU,2022-01-19 23:56:11,Villa Mar Colina,4.3
261,261,Manzanillo,19.0501,-104.3188,78.12,69,73,7.78,MX,2022-01-19 23:56:11,Hotel Zar Manzanillo,3.9
262,262,Torbay,47.6666,-52.7314,26.58,72,40,34.52,CA,2022-01-19 23:56:11,Gallows Cove,4
264,264,Bitkine,11.9801,18.2138,61.32,24,0,9.62,TD,2022-01-19 23:56:12,,
265,265,Ocós,14.5094,-92.1933,88.3,68,0,9.37,GT,2022-01-19 23:56:12,Auto Hotel El Soñador,4
266,266,Big Rapids,43.6981,-85.4837,19.9,73,100,8.05,US,2022-01-19 23:56:12,"Holiday Inn Big Rapids, an IHG Hotel",4
267,267,Dali,25.7,100.1833,36.39,90,7,3.33,CN,2022-01-19 23:56:12,Dali Travelling With Hostel,
268,268,Chui,-33.6971,-53.4616,73.56,96,39,4.34,UY,2022-01-19 23:56:13,Nuevo Hotel Plaza,3.9
269,269,Kruisfontein,-34.0033,24.7314,59.88,71,4,4.34,ZA,2022-01-19 23:56:13,Oyster Bay House Rental,3.7
270,270,Bahía Blanca,-38.7196,-62.2724,69.06,86,100,4.23,AR,2022-01-19 23:56:13,Hotel Argos,4.2
271,271,Rincon,8.4581,-82.2817,83.75,70,20,6.91,PA,2022-01-19 23:56:13,,
272,272,Severo-Kuril'sk,50.6789,156.125,28.72,93,100,8.59,RU,2022-01-19 23:56:13,Kak Doma,4.4
273,273,Acaraú,-2.8856,-40.12,78.75,85,19,11.48,BR,2022-01-19 23:56:27,castelo pizzaria,4.5
274,274,Atar,20.5169,-13.0499,70.59,11,0,9.42,MR,2022-01-19 23:55:19,Oumou Elghoura,3.4
275,275,Kokstad,-30.5472,29.4241,56.25,97,73,4.52,ZA,2022-01-19 23:57:14,Majestic Bed and Breakfast,4.3
276,276,Buchanan,5.8808,-10.0467,78.57,83,19,5.7,LR,2022-01-19 23:57:14,Kamaneahn Hotel Inc,4.3
278,278,Olafsvik,64.8945,-23.7142,40.17,85,100,22.21,IS,2022-01-19 23:57:14,Hotel Olafsvik,3.5
281,281,Antofagasta,-23.65,-70.4,72.21,49,44,8.1,CL,2022-01-19 23:52:29,"Holiday Inn Express Antofagasta, an IHG Hotel",4.5
282,282,Begowala,32.4376,74.2682,51.78,93,40,0.0,PK,2022-01-19 23:57:15,Masjid habib ullah,5
283,283,Mandalgovi,45.7625,106.2708,5.2,86,38,5.68,MN,2022-01-19 23:57:15,В.Ганбат,5
284,284,Raudeberg,61.9875,5.1352,32.86,80,100,7.0,NO,2022-01-19 23:57:15,Nordre Silda.,5
285,285,Valparaiso,41.4731,-87.0611,21.7,73,100,16.46,US,2022-01-19 23:57:16,Hampton Inn & Suites Valparaiso,4.3
286,286,Matamoros,25.5333,-103.25,75.11,23,7,3.31,MX,2022-01-19 23:57:16,Quinta Belem,4.8
287,287,Krasnosel'kup,65.7,82.4667,2.35,96,97,11.52,RU,2022-01-19 23:57:16,Krasnosel'kupnefteprodukt,3.8
288,288,Cidreira,-30.1811,-50.2056,77.07,91,7,13.06,BR,2022-01-19 23:57:16,Hotel Castelo,4.2
289,289,Delījān,33.9905,50.6838,30.27,45,0,4.5,IR,2022-01-19 23:57:17,ایزوگام آسیاگستر,5
290,290,Lata,30.7809,78.6152,41.56,91,100,3.53,IN,2022-01-19 23:57:17,"The Goat Village, Dayara Bugyal",4.5
292,292,Fortuna,40.5982,-124.1573,59.41,88,0,1.99,US,2022-01-19 23:57:17,Super 8 by Wyndham Fortuna,4.1
293,293,Rūdiškės,54.5167,24.8333,31.08,88,100,12.12,LT,2022-01-19 23:57:18,Landgoed de Harmonie Litouwen,4.8
294,294,Lakes Entrance,-37.8811,147.981,70.16,57,77,12.71,AU,2022-01-19 23:57:18,The Esplanade Resort & Spa,4.1
295,295,Castlemaine,-37.0667,144.2167,73.81,37,0,4.76,AU,2022-01-19 23:57:18,Fig Cafe & Accommodation,4.9
296,296,Cabo San Lucas,22.8909,-109.9124,80.62,54,98,4.0,MX,2022-01-19 23:57:18,Hotel Tesoro Los Cabos,4.4
297,297,Joensuu,62.6012,29.7632,34.29,95,100,5.75,FI,2022-01-19 23:57:19,Original Sokos Hotel Kimmel,3.9
298,298,Ca Mau,9.1769,105.15,73.6,83,72,4.23,VN,2022-01-19 23:57:19,Khách Sạn Mường Thanh Luxury Cà Mau,4.3
299,299,Muscat,23.6139,58.5922,73.63,75,3,2.53,OM,2022-01-19 23:52:33,Mutrah Hotel,3.8
300,300,Barra de Tecoanapa,16.5167,-98.75,79.93,70,26,5.95,MX,2022-01-19 23:57:19,Hotel Manglares,4
301,301,Yerköy,39.6381,34.4672,20.43,79,34,3.67,TR,2022-01-19 23:57:19,Yerköy Öğretmenevi,3.5
302,302,Fuling,29.7022,107.3919,52.3,75,93,4.12,CN,2022-01-19 23:57:19,Yingbin Hostel,
303,303,Necochea,-38.5473,-58.7368,67.03,86,76,18.54,AR,2022-01-19 23:56:37,dyd -mar Hotel,4.3
304,304,Baykit,61.67,96.37,8.56,98,100,2.89,RU,2022-01-19 23:57:20,,
307,307,Altamira,-3.2033,-52.2064,78.89,89,40,4.61,BR,2022-01-19 23:57:20,Requinte Hotel,4.3
308,308,Kiunga,-6.1219,141.2906,76.86,96,100,0.81,PG,2022-01-19 23:57:21,Airport Lodge Kiunga,5
309,309,Visnes,59.3556,5.2242,32.05,74,75,34.52,NO,2022-01-19 23:57:21,Park Inn Haugesund Airport,3.7
310,310,Pontianak,-0.0333,109.3333,75.18,94,20,0.0,ID,2022-01-19 23:57:21,Aston Pontianak Hotel & Convention Center,4.4
311,311,Fort Morgan,40.2503,-103.8,19.81,79,100,6.91,US,2022-01-19 23:57:21,Hampton Inn Fort Morgan,4.4
312,312,Balkhash,46.844,74.9804,16.12,88,100,15.3,KZ,2022-01-19 23:57:22,Family,
314,314,Nhulunbuy,-12.2333,136.7667,88.41,66,40,8.05,AU,2022-01-19 23:57:22,East Arnhem Real Estate,4.1
315,315,Piaçabuçu,-10.4056,-36.4344,78.6,78,6,5.68,BR,2022-01-19 23:57:22,Piaçabuçu News,4.3
316,316,Shingū,33.7333,135.9833,43.79,73,5,13.04,JP,2022-01-19 23:57:23,Shingu UI Hotel,3.6
317,317,Fukuechō,32.6881,128.8419,39.56,65,75,12.66,JP,2022-01-19 23:57:23,Goto Guesthouse Utojuku & SA Car Rental,4.4
318,318,Paita,-5.0892,-81.1144,75.76,78,98,14.2,PE,2022-01-19 23:57:23,Hotel Náutico de Paita,3.8
320,320,Palmer,42.1584,-72.3287,41.47,76,69,8.21,US,2022-01-19 23:57:24,Wedgewood Motel,4.1
321,321,Kavos,38.8268,22.8322,44.2,61,0,3.44,GR,2022-01-19 23:58:24,Kavos Villa,4.2
322,322,Abu Kamal,34.4506,40.9171,39.92,46,96,13.69,SY,2022-01-19 23:58:24,محطة التلفاز,
323,323,Aktash,50.3,87.7333,6.35,97,61,4.92,RU,2022-01-19 23:58:24,Yolki Zelonyye,4.7
324,324,Paphos,34.7667,32.4167,37.31,65,100,8.05,CY,2022-01-19 23:58:25,Elysium Hotel,4.8
325,325,Rocha,-34.4833,-54.3333,70.75,95,99,8.25,UY,2022-01-19 23:58:25,Hotel Arrarte,3
326,326,Östersund,63.1792,14.6357,22.6,79,85,14.97,SE,2022-01-19 23:58:25,Best Western Hotel Gamla Teatern,4
327,327,Opunake,-39.4556,173.8583,66.34,56,100,15.55,NZ,2022-01-19 23:58:25,Walton Cottage,5
328,328,Aitape,-3.1374,142.3475,80.76,79,100,8.86,PG,2022-01-19 23:58:25,,
329,329,Serik,36.9169,31.0989,37.74,53,24,12.01,TR,2022-01-19 23:58:26,Armas Belek - Ultra All Inclusive,5
331,331,Tenosique,17.4833,-91.4333,73.31,78,0,8.77,MX,2022-01-19 23:58:26,Hotel Central,3.9
332,332,Gold Coast,-28.0,153.4333,77.9,94,75,7.0,AU,2022-01-19 23:58:26,Mantra Towers of Chevron Surfers Paradise,3.8
333,333,Pochutla,15.7432,-96.4661,80.82,64,29,4.34,MX,2022-01-19 23:58:27,Hotel Posada San Jose,3.8
334,334,Arlit,18.7369,7.3853,54.52,28,0,6.22,NE,2022-01-19 23:58:27,Case de Passage De la Prefecture,4.8
335,335,Vigrestad,58.5667,5.7,30.99,56,86,37.04,NO,2022-01-19 23:58:27,Brusand Camping,4.2
336,336,East London,-33.0153,27.9116,70.16,82,13,10.58,ZA,2022-01-19 23:58:27,Tu Casa,4.6
337,337,Ushtobe,45.2514,77.9838,27.5,94,100,3.38,KZ,2022-01-19 23:58:28,"Gostinitsa ""Diyar""",3.6
338,338,Yabassi,4.457,9.9682,78.44,84,12,1.5,CM,2022-01-19 23:58:28,MOTEL FOMI,4
339,339,San Quintín,30.4833,-115.95,62.1,72,4,14.29,MX,2022-01-19 23:58:28,Don Eddie's Landing,4.5
340,340,Nikolayevka,53.1257,47.2041,24.01,88,100,4.27,RU,2022-01-19 23:58:28,"Hotel ""Prestige""",3.6
341,341,Ostrovnoy,68.0531,39.5131,34.21,97,100,14.34,RU,2022-01-19 23:58:29,,
342,342,Gizo Government Station,-8.103,156.8419,84.0,73,89,5.06,SB,2022-01-19 23:58:29,Imagination Island,4.9
343,343,San Angelo,31.4638,-100.437,50.11,48,2,5.01,US,2022-01-19 23:58:29,"Motel 6 San Angelo, TX",3.3
346,346,Hauterive,49.1833,-68.2667,4.87,85,100,13.8,CA,2022-01-19 23:58:30,Comfort Inn,3.9
347,347,Crib Point,-38.35,145.2,77.14,55,0,18.1,AU,2022-01-19 23:58:30,Erawan Bed & Breakfast,5
348,348,Tasiilaq,65.6145,-37.6368,26.82,96,100,10.87,GL,2022-01-19 23:58:30,The Red House,4.7
349,349,Mumbwa,-14.9783,27.0619,63.57,98,100,1.59,ZM,2022-01-19 23:58:31,Mumbwa Motel,3.2
350,350,Hasaki,35.7333,140.8333,32.4,52,77,2.98,JP,2022-01-19 23:58:31,Hotel Sunrise Choshi,3.8
351,351,Mahibadhoo,3.7833,72.9667,81.54,73,30,11.77,MV,2022-01-19 23:58:31,Omadhoo Inn,4.9
352,352,Naze,28.3667,129.4833,56.32,58,82,12.44,JP,2022-01-19 23:58:31,Shishime Hotel,2.9
353,353,Soskovo,52.7475,35.3828,17.13,96,90,10.2,RU,2022-01-19 23:58:32,,
354,354,Dubuque,42.4833,-90.8668,8.62,59,100,15.46,US,2022-01-19 23:58:32,American Inn and Suites,3.2
355,355,Yur’yevets,57.3201,43.1041,15.24,89,99,14.16,RU,2022-01-19 23:58:32,Pavlikov House,4.6
356,356,Mādhogarh,26.276,79.1869,49.55,48,14,0.67,IN,2022-01-19 23:58:32,Chetna Mandir,3.7
357,357,Pauini,-7.7136,-66.9764,75.88,92,100,0.89,BR,2022-01-19 23:58:33,Casa do Kiwliks,5
359,359,Krasnyy,54.5678,31.4333,29.19,97,100,12.17,RU,2022-01-19 23:58:33,,
360,360,Longyearbyen,78.2186,15.6401,17.44,86,100,6.91,SJ,2022-01-19 23:58:33,"Radisson Blu Polar Hotel, Spitsbergen",4.3
361,361,Fray Bentos,-33.1325,-58.2956,76.24,82,67,5.66,UY,2022-01-19 23:58:34,Gran Hotel Fray Bentos,4.2
362,362,Kakching,24.4833,93.9833,44.94,95,14,0.56,IN,2022-01-19 23:58:34,Dorendro Yengkhom's Shanghai,5
363,363,Ponta do Sol,17.1994,-25.0919,71.38,68,80,5.28,CV,2022-01-19 23:58:34,Residencial Ponta do Sol - Sintanton Trekking i,
364,364,Uvira,-3.4067,29.1458,71.98,85,100,1.88,CD,2022-01-19 23:58:34,Hotel Suzana,3
365,365,Jangaon,17.7167,79.1833,63.84,65,45,2.77,IN,2022-01-19 23:58:34,Sri Lakshmi Narasimha Fuction Hall,
366,366,Haines Junction,60.7522,-137.5108,1.35,85,100,1.14,CA,2022-01-19 23:58:35,Parkside Inn,4.8
367,367,Tugolesskiy Bor,55.5505,39.8242,16.5,94,98,9.75,RU,2022-01-19 23:58:35,,
369,369,Tortolì,39.9256,9.6572,45.99,66,0,5.48,IT,2022-01-19 23:58:35,Hotel La Bitta,4.7
371,371,Dejen,10.1667,38.1333,55.49,61,84,2.17,ET,2022-01-19 23:59:36,MAFLAB International Hotel,5
372,372,Hurghada,27.2574,33.8129,53.64,66,0,11.5,EG,2022-01-19 23:59:36,Sea Star Beau Rivage Hotel,4.1
373,373,Tres Arroyos,-38.3739,-60.2798,70.09,70,91,15.68,AR,2022-01-19 23:59:36,Habitacion Triple con baño y entrada privada,3
374,374,Marabu,4.4148,114.0089,75.34,100,40,5.75,MY,2022-01-19 23:59:37,"Mega Hotel, Miri",4.1
375,375,Asmara,15.3333,38.9333,49.1,90,53,3.22,ER,2022-01-19 23:59:37,Hamasien Hotel,3.5
376,376,Zomin,39.9606,68.3958,32.86,84,65,3.8,UZ,2022-01-19 23:59:37,Zominlik bitta yaxshi qiz,
378,378,Tsimmerbude,54.675,20.1347,37.45,88,100,23.51,RU,2022-01-19 23:59:38,"Gostinitsa-Kafe, Alena",3.9
379,379,Malm,64.0721,11.2172,32.79,62,74,25.55,NO,2022-01-19 23:59:38,Inn-Trøndelag Skatteoppkreverkontor,
381,381,San Rafael,-34.6177,-68.3301,72.77,36,0,9.15,AR,2022-01-19 23:59:38,Hotel San Rafael,4
382,382,Sur,22.5667,59.5289,72.97,72,0,6.15,OM,2022-01-19 23:59:39,Sur Plaza Hotel,3.8
385,385,Popondetta,-8.7537,148.2534,86.7,64,98,3.0,PG,2022-01-19 23:59:39,Timos Transit House,1
386,386,Houma,29.5958,-90.7195,69.8,84,100,6.87,US,2022-01-19 23:57:00,Courtyard by Marriott Houma,4.4
387,387,Mogadishu,2.0371,45.3438,77.76,81,26,16.13,SO,2022-01-19 23:59:19,Hotel Juba,3.7
388,388,Kirksville,40.1948,-92.5833,12.11,67,100,8.99,US,2022-01-19 23:59:39,Budget Host-Village Inn,3.5
389,389,Tacuarembó,-31.7333,-55.9833,80.44,74,35,5.82,UY,2022-01-19 23:59:40,Complejo San Fructuoso,4.2
390,390,Nioro,13.7912,-15.0494,79.21,13,20,8.66,GM,2022-01-19 23:59:40,,
391,391,Kavieng,-2.5744,150.7967,80.17,87,100,15.03,PG,2022-01-19 23:59:40,Nusa Island Retreat,4.6
392,392,Biloela,-24.4167,150.5,86.94,44,62,13.02,AU,2022-01-19 23:59:40,Biloela Silo Motor Inn,4.3
393,393,New Castle,41.0037,-80.347,43.88,87,100,8.7,US,2022-01-19 23:59:41,Hampton Inn & Suites New Castle,4.1
394,394,Brazzaville,-4.2658,15.2832,77.31,94,100,5.75,CG,2022-01-19 23:59:41,Hotel Muesse,
395,395,Kayes,14.0,-11.0,78.03,11,0,7.07,ML,2022-01-19 23:59:41,,
396,396,Waingapu,-9.6567,120.2641,79.77,78,100,5.66,ID,2022-01-19 23:59:41,Pondok Wisata Elim,4.4
397,397,Yelat'ma,54.9675,41.7508,11.55,89,92,8.08,RU,2022-01-19 23:59:42,,
398,398,Rawson,-43.3002,-65.1023,57.49,88,75,4.61,AR,2022-01-19 23:59:42,Hosteria Sampedro,4.2
399,399,Kumul,42.8,93.45,25.36,42,59,3.98,CN,2022-01-19 23:59:42,Laoyutang Resort,
400,400,Phaltan,17.9833,74.4333,64.85,45,75,3.2,IN,2022-01-19 23:59:43,Hotel New Vijay,3.7
402,402,Lower Hutt,-41.2167,174.9167,64.31,74,100,19.57,NZ,2022-01-19 23:59:43,Boulcott Lodge,4.4
403,403,Vardø,70.3705,31.1107,25.0,70,59,16.78,NO,2022-01-19 23:59:43,Vardø Hotel AS,3.9
404,404,Topaowan,30.67,112.6895,40.78,77,38,7.29,CN,2022-01-19 23:59:43,Yongsheng Hotel,
405,405,Artyom,40.4723,50.333,41.14,67,82,19.66,AZ,2022-01-19 23:59:44,Merdan Respect,
406,406,Kikwit,-5.041,18.8162,69.26,96,100,0.94,CD,2022-01-19 23:59:44,HOTEL PLACE YALABA,
407,407,Huicungo,-7.2833,-76.8,75.6,85,98,2.55,PE,2022-01-19 23:59:44,Gran Pajaten Trek,4
409,409,Keuruu,62.2667,24.7,35.78,98,100,7.47,FI,2022-01-19 23:59:45,Hostelli Nonna,4
411,411,Kupang,-10.1667,123.5833,73.98,100,100,1.14,ID,2022-01-19 23:59:27,Hotel On The Rock by Prasanthi,4.3
412,412,Gravdal,68.1214,13.5031,30.25,68,99,30.51,NO,2022-01-19 23:59:45,Skreda Rorbusuiter,4.8
413,413,Port Lincoln,-34.7333,135.8667,74.82,68,13,18.19,AU,2022-01-19 23:59:45,Port Lincoln Hotel,4.3
414,414,Kousséri,12.0769,15.0306,66.16,19,0,11.5,CM,2022-01-19 23:59:46,Le Pilotis,3.4
415,415,Togur,58.3631,82.8265,3.94,97,83,5.73,RU,2022-01-20 00:00:46,,
418,418,Cairns,-16.9167,145.7667,87.12,71,40,12.66,AU,2022-01-20 00:00:47,Mantra Trilogy Cairns,3.9
419,419,Georgetown,-7.9333,-14.4167,79.25,65,100,6.35,SH,2022-01-20 00:00:47,Scout's Beach Hut Campsite,4
420,420,Rønne,55.1009,14.7066,39.11,65,75,32.21,DK,2022-01-20 00:00:47,Griffen Spahotel,4.3
421,421,Turbat,26.0023,63.044,67.1,91,3,3.53,PK,2022-01-20 00:00:47,Mubashar Quarters,
422,422,College,64.8569,-147.8028,7.59,87,99,3.33,US,2022-01-20 00:00:48,Pike's Waterfront Lodge,4.4
423,423,Ploskoye,52.7638,38.3582,3.02,94,74,6.91,RU,2022-01-20 00:00:48,Базилик Становое,4
424,424,Żurrieq,35.8311,14.4742,52.97,87,40,5.75,MT,2022-01-20 00:00:48,Ta'Bertu Guest House,4.3
425,425,Shādegān,30.6497,48.6647,48.63,44,4,1.48,IR,2022-01-20 00:00:49,مسافر خانه ابو ولید,
426,426,Kununurra,-15.7667,128.7333,85.98,74,99,0.0,AU,2022-01-20 00:00:49,Hotel Kununurra,4
427,427,Kindu,-2.95,25.95,69.98,94,100,1.54,CD,2022-01-20 00:00:49,Résidence Okanda,4
428,428,Manokwari,-0.8667,134.0833,80.74,76,94,7.05,ID,2022-01-20 00:00:49,Swiss Belhotel Manokwari,4.5
429,429,Kaeo,-35.1,173.7833,79.32,59,100,8.97,NZ,2022-01-20 00:00:50,Bushido Lodge,
430,430,Nokaneng,-19.6667,22.2667,70.38,75,52,3.42,BW,2022-01-20 00:00:50,,
431,431,Ekhabi,53.5102,142.9671,1.26,95,99,18.01,RU,2022-01-20 00:00:50,,
432,432,Koeru,58.9631,26.0308,34.23,95,100,15.55,EE,2022-01-20 00:00:51,Vao Guesthouse,4.4
433,433,Cayenne,4.9333,-52.3333,80.1,84,75,1.99,GF,2022-01-20 00:00:49,Hôtel Le Dronmi,3.9
434,434,Jiwani,25.05,61.7417,72.3,85,4,15.08,PK,2022-01-20 00:00:51,Al Mumtaz Transport Jiwani,5
435,435,Portland,-38.3333,141.6,70.65,56,0,11.12,AU,2022-01-20 00:00:51,Portland Holiday Village,4.2
436,436,Faya,18.3851,42.4509,51.73,88,12,5.68,SA,2022-01-20 00:00:51,املاك خالد الشعشوع,3
437,437,Gat,14.6934,-16.535,74.17,13,4,9.04,SN,2022-01-20 00:00:52,Keur Seck,5
438,438,Grand Baie,-20.0182,57.5802,80.46,87,94,11.54,MU,2022-01-20 00:00:52,Trou aux Biches Beachcomber Golf Resort & Spa,4.6
439,439,Ucluelet,48.9329,-125.5528,48.09,92,100,1.01,CA,2022-01-19 23:56:55,Black Rock Oceanfront Resort,4.3
440,440,Abu Samrah,35.3029,37.1841,33.03,43,30,22.17,SY,2022-01-20 00:00:52,,
441,441,Zhigalovo,54.8097,105.1578,13.37,98,100,0.25,RU,2022-01-20 00:00:52,"Hotel ""Lenatur""",4
442,442,Saldanha,-33.0117,17.9442,62.89,75,6,9.66,ZA,2022-01-20 00:00:53,Blue Bay Lodge,4.3
443,443,Fare,-16.7,-151.0167,80.56,77,100,22.3,PF,2022-01-20 00:00:53,Maitai Lapita Village Huahine,4.5
444,444,Banda Aceh,5.5577,95.3222,76.91,82,94,6.58,ID,2022-01-20 00:00:53,Sulthan Hotel International,3.4
445,445,Kolāras,25.2333,77.6,54.05,40,1,2.42,IN,2022-01-20 00:00:53,Shiv Shakti Garden (Gayatri Colony),3.8
446,446,Dodge City,37.7528,-100.0171,20.64,68,100,17.0,US,2022-01-20 00:00:54,Windsor Inn & Suites,3.4
447,447,Smithers,54.7804,-127.1743,16.12,86,90,8.05,CA,2022-01-20 00:00:14,"Prestige Hudson Bay Lodge, Premier Collection",4
448,448,Sept-Îles,50.2001,-66.3821,0.05,69,100,4.0,CA,2022-01-20 00:00:54,Comfort Inn,4
449,449,Tari,12.4086,4.4914,62.76,20,0,12.24,NG,2022-01-20 00:00:54,,
450,450,Kahului,20.8947,-156.47,81.84,75,9,11.99,US,2022-01-20 00:00:55,Maui Seaside Hotel,3.8
451,451,Puerto Vallarta,20.6204,-105.2307,75.9,89,100,4.0,MX,2022-01-20 00:00:12,Sheraton Buganvilias Resort & Convention Center,4.5
452,452,Cururupu,-1.8283,-44.8683,74.57,95,57,3.62,BR,2022-01-20 00:00:55,POUSADA TRAVÉS'CIA,4.3
453,453,Ambon City,-3.6954,128.1814,80.74,89,40,3.44,ID,2022-01-20 00:00:55,Swiss-Belhotel Ambon,4.3
454,454,Black River,18.0264,-77.8487,76.98,78,9,5.53,JM,2022-01-20 00:00:55,Idlers' Rest Beach Hotel,3.5
455,455,Qasigiannguit,68.8193,-51.1922,39.45,69,100,23.22,GL,2022-01-20 00:00:56,Hotel Diskobay,4
456,456,Pakxan,18.3778,103.6601,59.58,82,22,2.64,LA,2022-01-20 00:00:56,Kong Kham Pheng Guesthouse,4.1
457,457,Tulun,54.5611,100.5792,2.95,100,98,2.68,RU,2022-01-20 00:00:56,Квартира,4.4
458,458,Eha Amufu,6.6592,7.7596,74.93,26,100,5.46,NG,2022-01-20 00:00:57,Eden Resort,2
459,459,Ancud,-41.8697,-73.8203,66.22,79,26,12.73,CL,2022-01-20 00:00:57,Hotel Arena Gruesa,4.1
460,460,Hainichen,50.9667,13.1167,37.78,89,100,20.15,DE,2022-01-20 00:00:57,Zimmervermietung Graupner,4
461,461,Macaé,-22.3708,-41.7869,74.61,94,9,9.35,BR,2022-01-20 00:00:57,Personal Hotel,3.7
462,462,Vestmanna,62.1564,-7.1664,29.32,64,75,8.05,FO,2022-01-20 00:01:58,Vestmanna Camping,4.3
463,463,Narrabri,-30.3167,149.7833,77.52,53,40,17.27,AU,2022-01-20 00:01:58,Crossroads Hotel,4.1
464,464,Kattivākkam,13.2167,80.3167,74.07,85,65,1.68,IN,2022-01-20 00:01:58,Euronova Freezer,4.6
465,465,Port Hawkesbury,45.6169,-61.3485,20.91,80,100,1.01,CA,2022-01-20 00:01:58,MacKenzie House Tourist Home B&B,4
466,466,Funtua,11.5233,7.3081,53.98,30,3,10.09,NG,2022-01-20 00:01:59,Sani Jikan Mallam Hotel,4.3
468,468,Westport,-41.7526,171.6037,61.02,63,53,10.6,NZ,2022-01-20 00:01:59,Westport Motels,4.1
469,469,Saint Paul Harbor,57.79,-152.4072,33.55,85,100,12.77,US,2022-01-20 00:01:59,Best Western Kodiak Inn And Convention Center,4
470,470,Khovd,48.0056,91.6419,1.42,88,89,2.19,MN,2022-01-20 00:01:59,Hotel Khovd,3.1
471,471,Srandakan,-7.9386,110.2506,77.61,86,98,5.73,ID,2022-01-20 00:02:00,Puri Brata,4.5
473,473,Amvrosiyivka,47.7935,38.4777,17.24,87,71,6.26,UA,2022-01-20 00:02:00,Druzhba Hotel,4.1
474,474,Bonthe,7.5264,-12.505,79.5,79,7,6.15,SL,2022-01-20 00:02:01,Bonthe Holiday Village,4.5
475,475,Iranshahr,27.2025,60.6848,63.3,80,62,2.39,IR,2022-01-20 00:02:01,نیک سرشت,
476,476,Rio do Sul,-27.2142,-49.6431,77.9,96,12,1.48,BR,2022-01-20 00:02:01,Hotel | Restaurante Aliança Express,4.4
477,477,Shaoyang,27.2315,111.4525,46.42,91,100,3.65,CN,2022-01-20 00:02:01,IU Hotel Shaoyang Xihu Road,
479,479,Broken Hill,-31.95,141.4333,72.05,56,82,23.67,AU,2022-01-20 00:02:02,Royal Exchange Hotel,4.3
480,480,Isangel,-19.55,169.2667,83.95,77,66,13.35,VU,2022-01-20 00:02:02,Tanna Lodge,3.2
481,481,Mahébourg,-20.4081,57.7,80.26,82,99,11.68,MU,2022-01-20 00:02:02,Shandrani Beachcomber Resort & Spa,4.7
483,483,Greenville,35.6127,-77.3663,52.63,53,0,5.75,US,2022-01-20 00:02:03,the 5th Street Inn,4.4
484,484,Lorengau,-2.0226,147.2712,82.38,81,100,13.22,PG,2022-01-20 00:02:03,Lorengau Harbourside Hotel,3.4
485,485,Arawa,-6.2132,155.5367,81.82,81,99,6.71,PG,2022-01-20 00:02:03,Coastline Guest House,5
486,486,Qui Nhon,13.7667,109.2333,69.33,88,60,9.91,VN,2022-01-20 00:02:04,Hoang Yen Canary Hotel,3.5
487,487,General Pico,-35.6566,-63.7568,68.59,93,83,7.63,AR,2022-01-19 23:57:06,Euskadi Hotel,4
488,488,Bahawalnagar,30.5508,73.3908,47.77,92,12,5.79,PK,2022-01-20 00:02:04,Malik Amir Munir Jhakhar,3
489,489,Saint-Michel-des-Saints,46.6834,-73.9159,25.14,88,100,12.12,CA,2022-01-20 00:02:04,Motel Du Mont trinity,4.5
490,490,Bhālki,18.0333,77.2167,63.19,47,51,3.44,IN,2022-01-20 00:02:04,Khandre guest house,
491,491,Tongren,27.7172,109.1853,48.07,90,100,4.23,CN,2022-01-20 00:02:05,Fanjing Mountain International Conference Center,4
492,492,Pangkalanbuun,-2.6833,111.6167,74.12,97,100,5.1,ID,2022-01-20 00:02:05,Grand Kecubung Hotel,4.2
493,493,Havre-St-Pierre,50.2334,-63.5986,7.11,61,86,2.89,CA,2022-01-20 00:02:05,Auberge Niapiskau,4.4
494,494,Arys,42.4252,68.795,32.22,80,62,8.46,KZ,2022-01-20 00:02:05,Gostinitsa,4.3
495,495,Pombia,35.0089,24.8684,41.02,72,6,4.43,GR,2022-01-20 00:02:06,Olympic Hotel,4
496,496,Fenoarivo Atsinanana,-17.3667,49.4167,75.15,94,100,4.7,MG,2022-01-20 00:02:06,L'Oasis Lodge,4.3
497,497,Road Town,18.4167,-64.6167,77.0,69,2,19.48,VG,2022-01-20 00:02:06,"ZINGARA 76ft Catamaran, full crew-all included",
498,498,Colonia Rincón Viejo,16.9,-95.05,72.39,73,0,6.35,MX,2022-01-20 00:02:06,Casa Don Gustavo,4.3
499,499,Coyhaique,-45.5752,-72.0662,63.43,59,95,1.21,CL,2022-01-20 00:01:20,Diego De Almagro Coyhaique,4.3
500,500,Wuwei,37.9281,102.6414,24.94,37,1,5.66,CN,2022-01-20 00:02:07,Thank Inn Chain Hotel gansu wuwei liangzhou district xiguan middle road,
501,501,Kjøllefjord,70.9457,27.3465,31.32,72,77,22.32,NO,2022-01-20 00:02:07,Hotel Nordkyn,4.3
502,502,Joshīmath,30.5667,79.5667,39.81,80,100,2.35,IN,2022-01-20 00:02:07,Shivalik Camps & Resort,4.7
503,503,Ketchikan,55.3422,-131.6461,36.82,97,100,8.99,US,2022-01-20 00:02:07,Snow's Cove Lodge,5
504,504,Alakurtti,66.9672,30.3491,30.63,90,100,7.45,RU,2022-01-20 00:02:08,Agroturystyka Gientosław,5
505,505,Praya,-8.7054,116.2704,75.06,100,75,2.3,ID,2022-01-20 00:02:08,Grand Royal B.I.L Lombok,3.9
506,506,Flinders,-34.5833,150.8552,72.37,73,84,5.99,AU,2022-01-20 00:02:08,Shellharbour Resort & Conference Centre,3.6
507,507,Bay Saint Louis,30.3088,-89.33,66.15,92,100,8.72,US,2022-01-20 00:02:08,The Abode Guest House,4.5
508,508,Bandarbeyla,9.4942,50.8122,76.08,74,91,14.63,SO,2022-01-20 00:02:09,JABIR HOTEL,2.7
509,509,Redcar,54.6166,-1.06,41.52,56,19,8.99,GB,2022-01-20 00:02:09,The Park Hotel,4.2
510,510,Severo-Yeniseyskiy,60.3725,93.0408,8.56,92,100,7.34,RU,2022-01-20 00:03:09,Aktolik,4
511,511,Sirte,31.2089,16.5887,57.11,65,92,3.36,LY,2022-01-20 00:03:09,الهادي ابوشعاله سرت,5
513,513,Lapeer,43.0514,-83.3188,25.05,58,100,11.5,US,2022-01-19 23:58:26,"Holiday Inn Express Lapeer, an IHG Hotel",4
514,514,San Luis,16.1989,-89.4403,68.74,83,37,5.35,GT,2022-01-20 00:03:10,Posada Tikajal,4.3
515,515,Ilo,-17.6394,-71.3375,72.07,83,61,7.9,PE,2022-01-20 00:03:10,Torreblanca Hotel,4
516,516,Wanxian,30.8039,108.3897,49.21,70,84,5.19,CN,2022-01-20 00:03:10,7Days Inn Chongqing Shiqiaopu,
517,517,Bonoua,5.2741,-3.595,76.62,84,58,1.28,CI,2022-01-20 00:03:11,Hotel Bon Samaritian,4
518,518,Sisimiut,66.9395,-53.6735,33.12,97,100,17.52,GL,2022-01-20 00:03:11,Hotel Sisimiut,4
520,520,Mitú,1.1983,-70.1733,73.17,96,98,1.63,CO,2022-01-20 00:03:11,,
521,521,Anaco,9.4389,-64.4728,77.76,62,78,5.97,VE,2022-01-20 00:00:15,SAIVEN MALL (SAIVEN C.A.),4
522,522,Hofn,64.2539,-15.2082,27.64,57,62,5.77,IS,2022-01-20 00:03:11,Hótel Höfn,4.1
523,523,Hīt,33.6416,42.8251,46.22,72,73,13.35,IQ,2022-01-20 00:03:12,صالون زيرو,
524,524,Tuntum,-5.2581,-44.6489,73.36,91,58,0.6,BR,2022-01-20 00:03:12,Casa da Dona Maria Lúcia,
525,525,Orbetello,42.4408,11.2196,50.23,78,49,14.23,IT,2022-01-20 00:02:46,Argentario Golf Resort & Spa,4.5
526,526,Maseru,-29.3167,27.4833,60.46,91,41,1.79,LS,2022-01-20 00:03:12,Lakeview guesthouse,3.5
527,527,Moindou,-21.6924,165.677,85.95,64,15,7.38,NC,2022-01-20 00:03:12,Equi-lodge de Moindou,
528,528,Mwanga,-4.8,38.2,73.2,84,100,2.62,TZ,2022-01-20 00:03:13,Tembo Campsite & Lodge,3
529,529,Marfino,55.7028,37.3822,23.34,92,100,11.18,RU,2022-01-20 00:03:13,Nemchinovka-Park,4.5
530,530,Sulzbach-Rosenberg,49.4983,11.7517,37.58,97,100,13.35,DE,2022-01-20 00:03:13,Brauereigasthof Flair-Hotel Sperber-Bräu,4.3
531,531,Ingleside,27.8778,-97.2117,74.21,88,0,8.01,US,2022-01-19 23:59:17,Quality Inn Ingleside - Corpus Christi,4.5
532,532,Luanda,-8.8368,13.2343,73.89,83,86,8.23,AO,2022-01-20 00:00:16,Hotel Fórum,4
534,534,Nālūt,30.3333,10.85,46.47,53,74,8.55,LY,2022-01-20 00:03:14,,
535,535,Mbandaka,0.0487,18.2603,71.96,63,100,2.1,CD,2022-01-20 00:03:14,Guest House Epervier,5
537,537,Yārāda,17.65,83.2667,68.32,94,20,2.3,IN,2022-01-20 00:03:15,Yarada Jungle Beach Resorts,5
538,538,Avera,33.194,-82.5271,55.27,64,98,6.91,US,2022-01-20 00:03:15,,
539,539,Shahrud,36.4182,54.9763,30.52,30,0,5.06,IR,2022-01-20 00:03:15,Royal Hotel,3.4
540,540,Buta,2.7858,24.73,69.19,93,59,2.66,CD,2022-01-20 00:03:15,HOTEL BISO NA BISO,
541,541,Alofi,-19.0595,-169.9187,85.89,74,75,21.85,NU,2022-01-20 00:03:16,Taloa Heights,4.9
542,542,Sorong,-0.8833,131.25,81.09,78,100,3.0,ID,2022-01-20 00:03:16,Waigo Splash Hotel,3.7
544,544,Ugoofaaru,5.6667,73.0,81.34,68,73,9.46,MV,2022-01-20 00:03:16,Ungoofaaru Inn,4.2
545,545,Lasa,34.9245,32.5278,30.51,58,28,5.59,CY,2022-01-20 00:03:16,Lasa Heights Hotel,4.3
546,546,Hackettstown,40.854,-74.8291,45.05,70,90,0.0,US,2022-01-20 00:03:17,Quality Inn Hackettstown - Long Valley,3.6
547,547,Klaksvík,62.2266,-6.589,31.12,55,91,21.9,FO,2022-01-20 00:03:17,Airbnb rooms,
548,548,Guatire,10.4762,-66.5427,70.0,98,61,2.42,VE,2022-01-20 00:03:17,Parque Residencial Canaima I,4.4
549,549,Abu Dhabi,24.4667,54.3667,69.96,71,74,1.01,AE,2022-01-20 00:00:58,Ramee Garden Hotel Apartments,3.6
550,550,Canapi,-9.1174,-37.6012,77.02,70,19,12.64,BR,2022-01-20 00:03:17,,
551,551,Toora-Khem,52.4675,96.11,9.19,96,100,1.52,RU,2022-01-20 00:03:18,,
552,552,Puerto Plata,19.7934,-70.6884,76.44,83,5,9.01,DO,2022-01-20 00:00:13,Tropical Junior Suite All-Incl Resort Puerto Plata,
553,553,Saint George,32.3817,-64.6781,62.74,71,100,5.64,BM,2022-01-19 23:58:44,The St George's Club & Resort,4
555,555,Medicine Hat,50.0501,-110.6683,11.91,56,20,5.75,CA,2022-01-19 23:59:52,Sun Dek Motel,3.5
556,556,Kemin,42.7846,75.6892,27.28,85,95,4.45,KG,2022-01-20 00:03:18,Hotel Kok-Oirok,4.1
557,557,Kasempa,-13.4584,25.8338,61.97,98,100,2.68,ZM,2022-01-20 00:04:19,Lolelunga Forest Reserve,
558,558,Cap Malheureux,-19.9842,57.6142,80.47,87,91,12.44,MU,2022-01-20 00:04:19,Pereybere Hotel & Spa,4.2
559,559,Mâncio Lima,-7.6142,-72.8958,76.28,89,98,2.59,BR,2022-01-20 00:04:19,Motel Asas Do Desejo,
560,560,Puerto Carreño,6.189,-67.4859,85.1,36,18,8.81,CO,2022-01-20 00:04:19,Casa Hotel Victoria,4.1
561,561,Vung Tau,10.346,107.0843,74.61,75,42,7.63,VN,2022-01-20 00:04:19,Green hotel,4.1
562,562,Zarichne,51.8126,26.129,30.33,94,100,10.16,UA,2022-01-20 00:04:20,Yunistʹ,2.6
563,563,Kenai,60.5544,-151.2583,28.15,93,100,11.5,US,2022-01-20 00:04:20,Aspen Extended Stay Suites,4.2
564,564,Port Macquarie,-31.4333,152.9167,71.49,88,75,13.8,AU,2022-01-20 00:03:21,Rydges Port Macquarie,4
565,565,Koslan,63.4564,48.8989,15.51,86,100,13.0,RU,2022-01-20 00:04:20,,
566,566,Sistranda,63.7256,8.834,32.9,68,100,42.59,NO,2022-01-20 00:04:20,Hotell Frøya,4.6
568,568,Andenes,69.3143,16.1194,33.78,75,75,31.07,NO,2022-01-20 00:04:21,Hotell Marena,4.3
569,569,Šibenik,43.7272,15.9058,44.38,65,5,5.01,HR,2022-01-20 00:04:21,Hotel Jadran,3.5
570,570,Abong Mbang,3.9833,13.1833,65.46,43,17,1.59,CM,2022-01-20 00:04:21,Auberge Angle Sur,2.5
571,571,Santa Maria da Vitória,-13.3947,-44.1886,71.04,71,40,2.53,BR,2022-01-20 00:04:22,Pousada Rio Current,4.1
572,572,Lālmohan,22.3384,90.7419,62.64,65,7,5.86,BD,2022-01-20 00:04:22,Sundorbon courier service,3
573,573,Bourail,-21.5667,165.4833,85.57,60,18,5.23,NC,2022-01-20 00:04:22,Motel Allamanda,4.7
574,574,Burayevo,55.8407,55.4083,19.92,95,100,14.85,RU,2022-01-20 00:04:22,"Gostnitsa ""Tanyp""",3.8
575,575,Cascais,38.6979,-9.4215,51.51,60,0,1.99,PT,2022-01-20 00:01:42,Hotel Vila Galé Cascais,4.3
576,576,Viçosa,-20.7539,-42.8819,69.64,93,1,4.23,BR,2022-01-20 00:04:23,Vivant Residence,4.3
577,577,Florø,61.5996,5.0328,33.76,55,75,35.68,NO,2022-01-20 00:04:23,Kinn Hotell Florø,4.2
578,578,Westport,53.8,-9.5167,48.81,88,97,5.35,IE,2022-01-20 00:04:23,The Wyatt Hotel,4.4
579,579,Mariana,-20.3778,-43.4161,68.04,95,43,1.95,BR,2022-01-20 00:03:04,MINAS POUSADA E HOTEL LTDA,3.8
580,580,Galle,6.0367,80.217,75.7,86,88,5.64,LK,2022-01-20 00:04:23,Amangalla,4.3
581,581,Alice Springs,-23.7,133.8833,84.22,52,100,5.99,AU,2022-01-20 00:04:24,Desert Palms Alice Springs,4.1
582,582,Bar Harbor,44.3876,-68.2039,42.12,70,97,14.0,US,2022-01-20 00:04:24,Atlantic Oceanside Hotel & Event Center,4.5
583,583,San Policarpo,12.1791,125.5072,78.39,87,91,12.12,PH,2022-01-20 00:04:24,Agapita M. Nicart,
584,584,Yantal',56.8471,105.2542,1.27,99,97,0.51,RU,2022-01-20 00:04:24,,
585,585,Lerwick,60.1545,-1.1494,33.8,59,100,31.59,GB,2022-01-20 00:04:25,The Lerwick Hotel,4.1
586,586,Adrar,25.75,-1.0,53.74,26,6,8.37,DZ,2022-01-20 00:04:25,,
587,587,Osoyoos,49.0331,-119.4524,43.0,85,100,2.42,CA,2022-01-20 00:00:12,Watermark Beach Resort,4.4
588,588,Luau,-10.7073,22.2247,61.36,97,99,2.86,AO,2022-01-20 00:04:25,Casa- Bernardo Cândido,
592,592,Karwar,14.8,74.1333,70.32,66,90,5.79,IN,2022-01-20 00:04:26,Netalco Connects,5
593,593,Bitam,2.076,11.5007,69.37,91,76,2.1,GA,2022-01-20 00:04:26,Bénédicta hôtel,3.7
594,594,Lodwar,3.1191,35.5973,81.63,50,25,4.12,KE,2022-01-20 00:04:27,Solmar Gracious Hotel,5
595,595,Baní,18.2833,-70.3333,74.52,80,5,9.01,DO,2022-01-20 00:04:27,Hospedaje Henriquez,
596,596,Kiama,-34.6833,150.8667,72.57,70,91,1.99,AU,2022-01-20 00:04:27,The Sebel Kiama Harbourside,4.2
597,597,Phalombe,-15.8064,35.6507,64.0,94,82,1.07,MW,2022-01-20 00:04:27,RIVONIA,
598,598,Starobaltachevo,56.0013,55.9213,19.09,94,100,14.9,RU,2022-01-20 00:04:28,Uyut,3.5
599,599,Poum,-20.2333,164.0167,82.0,70,15,4.72,NC,2022-01-20 00:04:28,Gîte kajeon,3
600,600,Sakaiminato,35.55,133.2333,40.51,58,91,24.34,JP,2022-01-20 00:04:28,Matsuya,4.3
601,601,Aleksandrovskoye,44.7142,43.0008,26.74,95,100,2.48,RU,2022-01-20 00:04:28,Mini hotel Tranzit,4.2
602,602,Aripuanã,-9.1667,-60.6333,74.21,96,100,1.61,BR,2022-01-20 00:04:29,,
603,603,Mitsamiouli,-11.3847,43.2844,81.23,79,99,16.22,KM,2022-01-20 00:04:29,Foyer ADM,5
605,605,Brigantine,39.4101,-74.3646,46.33,79,20,8.05,US,2022-01-20 00:05:29,Legacy Vacation Resorts - Brigantine Beach,3.8
607,607,Leh,34.1667,77.5833,4.53,92,87,2.26,IN,2022-01-20 00:05:30,Hotel Ladakh Greens,4.2
608,608,Harper,4.375,-7.7169,78.06,85,4,4.41,LR,2022-01-20 00:05:30,Screensaver,
609,609,Hamilton,39.1834,-84.5333,40.75,68,100,5.01,US,2022-01-20 00:03:48,Six Acres Bed & Breakfast,4.5
610,610,Grøa,62.65,8.7167,32.09,96,100,20.71,NO,2022-01-20 00:05:30,Skogly Camping,3.9
611,611,Yulara,-25.2406,130.9889,80.87,52,66,15.41,AU,2022-01-20 00:05:30,Desert Gardens Hotel - Ayers Rock Resort,4.1
612,612,Sarankhola,22.3082,89.7897,57.07,69,6,4.43,BD,2022-01-20 00:05:31,Red Crescent Cyclone Shelter Rashulpur,
613,613,Porto Walter,-8.2686,-72.7439,77.2,86,100,2.77,BR,2022-01-20 00:05:31,Secretaria de saúde,4
614,614,Te Anau,-45.4167,167.7167,53.49,65,94,3.8,NZ,2022-01-20 00:03:20,Kingsgate Hotel Te Anau,3.8
617,617,Balaipungut,1.05,101.2833,73.81,98,100,0.54,ID,2022-01-20 00:05:32,,
619,619,Savannah Bight,16.45,-85.85,78.01,69,3,17.2,HN,2022-01-20 00:05:32,Villa on Dunbar Rock,4.8
620,620,Mayor Pablo Lagerenza,-19.9309,-60.7718,83.19,49,65,5.28,PY,2022-01-20 00:05:32,,
621,621,Olinda,-8.0089,-34.8553,82.13,69,40,6.91,BR,2022-01-20 00:05:33,Hotel Albergue de Olinda,4.3
622,622,Tocopilla,-22.092,-70.1979,71.67,76,26,11.61,CL,2022-01-20 00:05:33,Hotel Galvarino,4.3
623,623,Saint-Pierre,46.7654,-56.1695,30.42,63,100,30.38,PM,2022-01-20 00:05:33,Pension B&B Dodeman,3.6
624,624,Kostanay,53.1667,63.5833,4.93,93,100,7.85,KZ,2022-01-20 00:05:33,Hotel Fessla,4.6
625,625,Mobaye,4.319,21.1786,73.18,81,89,2.98,CF,2022-01-20 00:05:34,,
626,626,Dicabisagan,17.0818,122.4157,74.05,85,100,7.65,PH,2022-01-20 00:05:34,Nancy Montanes Bernardo,
627,627,Batangafo,7.3008,18.2833,68.81,25,46,4.97,CF,2022-01-20 00:05:34,OCHA Office,4.8
628,628,Hervey Bay,-25.2986,152.8535,81.01,74,49,4.0,AU,2022-01-20 00:05:35,Shelly Bay Resort,4.6
629,629,Nordfjordeid,61.9063,5.9915,33.94,91,98,14.88,NO,2022-01-20 00:05:35,Sentrum Hotel,3.1
630,630,Rio Tuba,8.5061,117.4317,79.59,80,99,9.26,PH,2022-01-20 00:05:35,Jjas Pension House,
631,631,Bowen,-20.0167,148.2333,84.94,65,66,17.98,AU,2022-01-20 00:05:35,Castle Motor Lodge Motel,4.4
632,632,Luena,-11.7833,19.9167,59.36,95,100,2.77,AO,2022-01-20 00:05:35,Hotel Kandamba,3.3
634,634,Sochaczew,52.2294,20.2384,36.16,81,100,16.6,PL,2022-01-20 00:04:35,Hotel Chopin Business & Spa,4.4
635,635,Aksarayskiy,46.7924,48.0119,28.35,95,100,10.07,RU,2022-01-20 00:05:36,,
636,636,Rāvar,31.2656,56.8055,44.69,40,0,4.7,IR,2022-01-20 00:05:36,computertik,4.8
637,637,Batemans Bay,-35.7167,150.1833,68.92,67,95,11.23,AU,2022-01-20 00:05:37,Batemans Bay Marina Resort,4.1
638,638,Erzurum Province,40.0,41.5,13.68,86,100,5.23,TR,2022-01-20 00:05:37,Saksi Koyu Muhtarligi,4.2
639,639,Yelovo,57.0538,54.9207,22.32,93,100,14.09,RU,2022-01-20 00:05:37,,
640,640,Manicoré,-5.8092,-61.3003,75.54,94,81,3.18,BR,2022-01-20 00:05:37,Hotel Durval,3.4
642,642,Clarence Town,23.1,-74.9833,75.7,74,94,20.42,BS,2022-01-20 00:05:38,Harbor Breeze Villas,4
643,643,Mildura,-34.2,142.15,81.07,34,2,13.8,AU,2022-01-20 00:05:38,Mercure Hotel Mildura,4
644,644,Teodoro Sampaio,-22.5325,-52.1675,75.7,60,54,3.98,BR,2022-01-20 00:05:38,MINI HOTEL,3.7
646,646,Cockburn Town,24.0333,-74.5167,75.43,68,12,17.65,BS,2022-01-20 00:05:39,Club Med Columbus - Bahamas,4.5
647,647,Pucara,-15.9803,-71.4606,41.67,67,96,6.22,PE,2022-01-20 00:05:39,,
648,648,Taoudenni,22.6783,-3.9836,61.52,19,1,10.49,ML,2022-01-20 00:06:39,,
649,649,Gorontalo,0.5412,123.0595,76.26,94,100,2.42,ID,2022-01-20 00:06:40,Maqna Hotel by Prasanthi,4.3
650,650,Beira,-19.8436,34.8389,78.06,70,13,8.93,MZ,2022-01-20 00:06:40,Beira Terrace Hotel,3.9
651,651,Kaolinovo,43.6167,27.1167,31.12,72,24,6.87,BG,2022-01-20 00:06:40,,
652,652,Birjand,32.8663,59.2211,39.54,46,0,4.36,IR,2022-01-20 00:06:40,Birjand Tourist Hotel,3.9
654,654,Laramie,41.3114,-105.5911,21.78,86,100,5.75,US,2022-01-20 00:03:31,Fairfield Inn & Suites by Marriott Laramie,4.4
655,655,Komsomol'skiy,43.9783,46.6985,30.79,65,100,10.36,RU,2022-01-20 00:06:41,,
656,656,Alyth,56.6221,-3.2301,38.41,71,67,1.99,GB,2022-01-20 00:06:41,Lands of Loyal Hotel,4.7
657,657,Bintulu,3.1667,113.0333,76.6,90,100,1.83,MY,2022-01-20 00:06:42,900 Boutique INN,3.9
658,658,Māngrol,21.1167,70.1167,68.52,61,24,8.9,IN,2022-01-20 00:06:42,Hotel The Royal Honours,3.9
659,659,Saint George,37.1041,-113.5841,58.42,37,0,1.99,US,2022-01-20 00:04:32,Best Western Plus Abbey Inn,4.6
660,660,Lokosovo,61.1333,74.8167,9.54,96,89,8.52,RU,2022-01-20 00:06:42,,
662,662,São Miguel,-5.4667,-35.3667,80.56,73,67,13.87,BR,2022-01-20 00:06:42,CEJ - Centro Escoteiro da Juventude,4.6
663,663,Severodvinsk,64.5635,39.8302,24.91,90,100,13.53,RU,2022-01-20 00:06:43,Park Hotel,3.7
664,664,Rosarito,32.3333,-117.0333,67.59,69,3,8.16,MX,2022-01-20 00:06:43,Hotel Festival Plaza Rosarito,3.9
665,665,Batī,11.1833,40.0167,59.95,81,35,1.81,ET,2022-01-20 00:06:43,Adi 01 Kebele,5
666,666,Corinto,12.482,-87.1734,83.55,53,5,5.01,NI,2022-01-20 00:06:43,Hostal García,4.2
667,667,Zhezkazgan,47.8043,67.7144,7.59,90,96,8.97,KZ,2022-01-20 00:06:44,Hotel Zumrat,3.8
668,668,Emirdağ,39.0197,31.15,13.19,85,43,5.46,TR,2022-01-20 00:06:44,Emirdağ Öğretmenevi,3.4
669,669,Rechka Vydrino,51.485,104.8461,13.28,94,100,3.69,RU,2022-01-20 00:06:44,,
670,670,Santa Vitória,-18.8386,-50.1214,71.28,84,100,4.05,BR,2022-01-20 00:04:17,Center Hotel,4.4
671,671,Marquette,46.5333,-87.6335,8.33,74,99,11.21,US,2022-01-20 00:06:44,Al Quaal Lodge,5
672,672,General Roca,-39.0333,-67.5833,55.62,82,100,13.47,AR,2022-01-20 00:06:45,Hotel y Casino del Río General Roca,4.2
673,673,Majene,-3.5403,118.9707,78.6,81,100,1.9,ID,2022-01-20 00:06:45,Kost Putri RABBANI,3.7
674,674,Aborlan,9.4352,118.5492,79.0,83,90,8.39,PH,2022-01-20 00:06:45,Kevina Transient House,5
675,675,Līsakovsk,52.5369,62.4936,3.79,94,100,7.45,KZ,2022-01-20 00:06:45,Gostinitsa Lisakovsk,4.1
676,676,Bath,43.9106,-69.8206,36.09,68,100,0.0,US,2022-01-20 00:06:46,"Hampton Inn Bath (Brunswick Area), ME",4.6
677,677,Nantucket,41.2835,-70.0995,46.54,82,0,14.97,US,2022-01-20 00:06:46,Jared Coffin House,4.4
678,678,Scarborough,11.1833,-60.7333,78.96,72,6,18.05,TT,2022-01-20 00:06:46,Blue Haven Hotel,3.8
679,679,Darnah,32.767,22.6367,51.37,67,7,5.73,LY,2022-01-20 00:06:46,فندق الفردوس,2.5
680,680,Sabang,5.8933,95.3214,80.01,74,95,6.51,ID,2022-01-20 00:06:47,Hotel Citra,4.2
681,681,Tucupita,9.0622,-62.051,73.72,87,11,5.41,VE,2022-01-20 00:06:47,Hotel Tucupita Su​ite C.A.,4
682,682,North Bend,43.4065,-124.2243,58.24,97,100,3.44,US,2022-01-20 00:06:47,Red Lion Hotel Coos Bay,3.8
683,683,Nouadhibou,20.931,-17.0347,66.25,76,2,9.04,MR,2022-01-20 00:06:47,El Medina,4
684,684,Haradok,55.4624,29.9816,29.62,94,100,10.92,BY,2022-01-20 00:06:48,"Gostinitsa ""Sportivnyy Gorodok""",3.6
685,685,Burhaniye,39.5004,26.9727,22.91,86,0,3.44,TR,2022-01-20 00:06:48,Hotel Nova,4.1
686,686,Wankyi,7.7392,-2.1046,74.46,20,33,4.25,GH,2022-01-20 00:06:48,Ebenezer Hotel,3
687,687,Semey,50.4111,80.2275,0.54,99,69,7.36,KZ,2022-01-20 00:06:48,Grand Hotel Semey,3.9
688,688,Gemena,3.25,19.7667,71.92,42,99,1.63,CD,2022-01-20 00:06:49,Hôtel Goshen,2
689,689,Cajaruro,-5.7364,-78.4256,77.85,76,92,3.65,PE,2022-01-20 00:06:49,Hotel Kuelap,3.9
690,690,Vittorio Veneto,45.9767,12.3033,38.64,92,94,1.52,IT,2022-01-20 00:06:49,Alice Relais nelle Vigne,4.9
691,691,Kaka,37.3482,59.6143,37.38,71,0,6.62,TM,2022-01-20 00:06:49,,
692,692,La Crosse,43.8014,-91.2396,7.43,62,0,1.99,US,2022-01-20 00:02:30,Holiday Inn & Suites La Crosse - Downtown,4.1
693,693,Praia,14.9215,-23.5087,71.53,81,64,11.77,CV,2022-01-20 00:06:05,LT Aparthotel,4
694,694,Ystad,55.4297,13.8204,38.14,62,62,32.5,SE,2022-01-20 00:07:50,Continental du Sud,4.3
695,695,Domoni,-12.2569,44.5319,80.11,83,98,12.93,KM,2022-01-20 00:07:50,Al Djadid,4.3
696,696,Dakar,14.6937,-17.4441,74.28,72,4,16.87,SN,2022-01-20 00:03:13,Redface Studios Meublés,3.9
698,698,Siljan,59.2884,9.71,30.72,41,40,13.04,NO,2022-01-20 00:07:50,Oddis fiskedam,
699,699,Deep River,46.1001,-77.4995,23.95,86,87,13.53,CA,2022-01-20 00:07:51,Deep River Motel,3.9
700,700,Otse,-25.0167,25.7333,68.52,67,97,8.19,BW,2022-01-20 00:07:51,Baratani Lodge,4
701,701,Bollnäs,61.3482,16.3946,28.38,61,100,14.72,SE,2022-01-20 00:07:51,Grand Hotel,2.9
702,702,Kudahuvadhoo,2.6708,72.8944,81.3,74,56,10.02,MV,2022-01-20 00:07:51,Niyama Private Islands Maldives,4.7
703,703,Sangmélima,2.9333,11.9833,68.95,80,82,1.63,CM,2022-01-20 00:07:52,gamestar hotel,
704,704,Gamba,-2.65,10.0,75.99,90,100,0.85,GA,2022-01-20 00:07:52,,
705,705,Bahía Solano,6.2262,-77.4044,78.94,87,68,2.84,CO,2022-01-20 00:07:52,Paraiso Escondido,4
706,706,Altay,47.8667,88.1167,20.07,80,97,2.35,CN,2022-01-20 00:07:52,Jinqiao Hotel,
707,707,Otautau,-46.15,168.0,55.44,50,100,9.93,NZ,2022-01-20 00:07:53,Otautau Hotel,4.5
708,708,Waddān,29.1614,16.139,53.19,74,98,2.19,LY,2022-01-20 00:07:53,محل الشريف محمد العايب,4
709,709,Bad Wildungen,51.1196,9.1248,38.12,87,75,5.75,DE,2022-01-20 00:07:53,Göbel's Hotel Quellenhof,4.3
710,710,Mathbaria,22.2876,89.9593,57.76,67,8,5.28,BD,2022-01-20 00:07:53,Shikdar Hotel,5
711,711,Mount Isa,-20.7333,139.5,78.57,89,40,4.61,AU,2022-01-20 00:07:54,ibis Styles Mt Isa Verona,3.9
712,712,Muros,42.7762,-9.0603,51.24,85,2,9.8,ES,2022-01-20 00:07:54,Apartment Av. Castelao,
713,713,Grand-Santi,4.25,-54.3833,72.34,99,73,2.48,GF,2022-01-20 00:07:54,Hotel La Villa Couacou,3
714,714,Daru,-9.0763,143.2092,78.58,89,95,7.9,PG,2022-01-20 00:07:55,Daru Lodge,
715,715,Maumere,-8.6199,122.2111,77.79,85,100,5.68,ID,2022-01-20 00:07:55,Sylvia Hotel,4.1
